[
  {
    "id": "F7BAA351-D02E-4FE9-A6B0-781D82FF0F3A",
    "name": "Lake Washington School District",
    "description": "Lake Washington School District is a high-performing public school district serving Kirkland, Redmond, and Sammamish, Washington. It is the fourth largest district in the state of Washington, with over 27,800 students in 52 schools. The district's vision is Every Student Future Ready: Prepared for College, Prepared for the Global Workplace, Prepared for Personal Success.",
    "icon": "/src/components/groups/display/Events1.jpg",
    "privacy": "Open",
    "owner": "",
    "administrators": [],
    "members": [],
    "location": "USA",
    "address": {
      "streetNumber": 16250,
      "streetName": "NE 74th Street",
      "city": "Redmond",
      "state": "WA",
      "postalCode": "98052"
    },
    "contact": {
      "phone": "4259361200",
      "email": "tpierce@lwsd.org"
    },
    "webSite": "http://www.lwsd.org"
  },
  {
    "id": "014E3830-C373-4890-9C84-8362B8F5996B",
    "name": "Northshore School District",
    "description": "Northshore School District is committed to strengthening our community through excellence in education. Our students are recognized nationally for academic & extra-curricular achievement. We serve students in Bothell, Kenmore and Woodinville, WA.",
    "icon": "/src/components/groups/display/Events2.jpg",
    "privacy": "Open",
    "owner": "",
    "administrators": [],
    "members": [],
    "location": "USA",
    "address": {
      "streetNumber": 3330,
      "streetName": "Monte Villa Parkway",
      "city": "Bothell",
      "state": "WA",
      "postalCode": "98021"
    },
    "contact": {
      "phone": "4254086000",
      "email": "info@nsd.org"
    },
    "webSite": "http://www.nsd.org"
  },
  {
    "id": "9BCE12F5-0D43-47CD-AB31-E8D0D531A93F",
    "name": "Bellevue Childrens Academy And Bellevue Childrens Academy",
    "description": "Bellevue Children�s Academy provides an educational framework that fosters the development of the whole child. We are attentive to students� social, emotional and physical welfare, guiding them to excel both academically and developmentally. BCA students are motivated to become global citizens who demonstrate innovation, creativity and dignity.",
    "icon": "/src/components/groups/display/Events3.jpg",
    "privacy": "Open",
    "owner": "",
    "administrators": [],
    "members": [],
    "location": "USA",
    "address": {
      "streetNumber": 14600,
      "streetName": "NE 24th St",
      "city": "Bellevue",
      "state": "WA",
      "postalCode": "98007"
    },
    "contact": {
      "phone": "4256490791",
      "email": "bca1@bcacademy.com"
    },
    "webSite": "http://www.bcacademy.com"
  },
  {
    "id": "4FEBD44D-4637-4545-84AD-D12C819C8773",
    "name": "Issaquah School District",
    "description": "The Issaquah School District educates 19,000 students in 25 schools in the foothills of the Cascade Mountains in WA.",
    "icon": "",
    "privacy": "Open",
    "owner": "",
    "administrators": [],
    "members": [],
    "location": "USA",
    "address": {
      "streetNumber": 565,
      "streetName": "NW Holly Street",
      "city": "Issaquah",
      "state": "WA",
      "postalCode": "98027"
    },
    "contact": {
      "phone": "4258377000",
      "email": "michellel@issaquah.wednet.edu"
    },
    "webSite": "http://www.issaquah.wednet.edu"
  },
  {
    "id": "FCC4B6F4-56AF-429C-9812-38284B4DA429",
    "name": "Microsoft Corporation",
    "description": "",
    "icon": "",
    "privacy": "Open",
    "owner": "",
    "administrators": [],
    "members": [],
    "location": "USA",
    "address": {
      "streetName": "One Microsoft Way",
      "city": "Redmond",
      "state": "WA",
      "postalCode": "98052"
    },
    "contact": {
      "phone": "4258828080",
      "email": "support@microsoft.com"
    },
    "webSite": "http://www.microsoft.com"
  },
  {
    "id": "AE58F224-B5D1-4545-A49C-408D373ECC68",
    "name": "Amazon LLC",
    "description": "Online shopping from the earth's biggest selection of books, magazines, music, DVDs, videos, electronics, computers, software, apparel & accessories, shoes, jewelry, tools & hardware, housewares, furniture, sporting goods, beauty & personal care, gourmet food & just about anything else.",
    "icon": "",
    "privacy": "Open",
    "owner": "",
    "administrators": [],
    "members": [],
    "location": "USA",
    "address": {
      "streetNumber": 410,
      "streetName": "Terry Ave N",
      "city": "Seattle",
      "state": "WA",
      "postalCode": "98109"
    },
    "contact": {
      "phone": "2062661000",
      "email": "support@amazon.com"
    },
    "webSite": "http://www.amazon.com"
  }
]